timestamp,gs.rssi,comms.recd,tpc.state,fc.pwr,tpc.gps,tpc.bat_v,tpc.bat_v_avgd,comms.sent,fc.state,fc.alt,gs.log
0,-68,136,0,0,"$GPGGA,204612.000,3630.7342,N,12004.0533,W,2,12,0.73,50.7,M,-26.9,M,0000,0000*6D",15.875592,15.875592,,,,
500038,-68,192,0,0,,15.894936,15.885264,,,,
1000038,-69,328,0,0,"$GPGGA,204613.000,3630.7342,N,12004.0533,W,2,12,0.73,50.7,M,-26.9,M,0000,0000*6C",15.880427,15.88365167,,,,
1500053,-69,384,0,0,,15.870756,15.88042775,,,,
2000062,-68,520,0,0,"$GPGGA,204614.000,3630.7342,N,12004.0533,W,2,12,0.73,50.7,M,-26.9,M,0000,0000*6B",15.904608,15.8852638,,,,
2500086,-69,576,0,0,,15.817559,15.87397967,,,,
3000137,-68,712,0,0,"$GPGGA,204615.000,3630.7342,N,12004.0533,W,2,12,0.73,50.7,M,-26.9,M,0000,0000*6A",15.91428,15.87973686,,,,
3500164,-68,768,0,0,,15.827231,15.87317363,,,,
4000230,-67,904,0,0,"$GPGGA,204616.000,3630.7342,N,12004.0533,W,2,12,0.73,50.7,M,-26.9,M,0000,0000*69",15.875592,15.87344233,,,,
4500234,-67,960,0,0,,15.899772,15.8760753,,,,
5000262,-66,1096,0,0,"$GPGGA,204617.000,3630.7342,N,12004.0533,W,2,12,0.73,50.7,M,-26.9,M,0000,0000*68",15.861084,15.87471245,,,,
5500277,-66,1152,0,0,,15.894936,15.87639775,,,,
6000319,-66,1288,0,0,"$GPGGA,204618.000,3630.7342,N,12004.0533,W,2,12,0.73,50.7,M,-26.9,M,0000,0000*67",15.832067,15.87298769,,,,
6500359,-66,1344,0,0,,15.832067,15.87006479,,,,
7000403,-66,1480,0,0,"$GPGGA,204619.000,3630.7342,N,12004.0533,W,2,12,0.73,50.7,M,-26.9,M,0000,0000*66",15.880427,15.8707556,,,,
7500463,-66,1536,0,0,,15.909444,15.87317363,,,,
8000472,-67,1672,0,0,"$GPGGA,204620.000,3630.7342,N,12004.0533,W,2,12,0.73,50.7,M,-26.9,M,0000,0000*6C",15.91428,15.87559165,,,,
8500482,-66,1728,0,0,,15.817559,15.87236761,,,,
9000500,-66,1864,0,0,"$GPGGA,204621.000,3630.7342,N,12004.0533,W,2,12,0.73,50.7,M,-26.9,M,0000,0000*6D",15.8901,15.87330089,,,,
9500547,-67,1920,0,0,,15.812723,15.870272,,,,
10000605,-67,2056,0,0,"$GPGGA,204622.000,3630.7342,N,12004.0533,W,2,12,0.73,50.7,M,-26.9,M,0000,0000*6E",15.899772,15.87167676,,,,
11000675,-80,2192,0,0,"$GPGGA,204623.000,3630.7342,N,12004.0533,W,2,12,0.73,50.7,M,-26.9,M,0000,0000*6F",15.909444,15.87339345,,,,
11500715,-80,2248,0,0,,15.86592,15.87306852,,,,
12000720,-82,2384,0,0,"$GPGGA,204624.000,3630.7342,N,12004.0533,W,2,12,0.73,50.7,M,-26.9,M,0000,0000*68",15.798215,15.86994963,,,,
12500774,-81,2440,0,0,,15.870756,15.86998188,,,,
13000797,-81,2576,0,0,"$GPGGA,204625.000,3630.7342,N,12004.0533,W,2,12,0.73,50.7,M,-26.9,M,0000,0000*69",15.827231,15.86833762,,,,
13500801,-81,2632,0,0,,15.899772,15.86950185,,,,
14000838,-81,2768,0,0,"$GPGGA,204626.000,3630.7342,N,12004.0533,W,2,12,0.73,50.7,M,-26.9,M,0000,0000*6A",15.870756,15.86954664,,,,
14500880,-81,2824,0,0,,15.928788,15.87158945,,,,
15000922,-81,2960,0,0,"$GPGGA,204627.000,3630.7342,N,12004.0533,W,2,12,0.73,50.7,M,-26.9,M,0000,0000*6B",15.933624,15.87365727,,,,
15500955,-67,3016,0,0,,15.948133,15.8760753,,,,
16000993,-66,3152,0,0,"$GPGGA,204628.000,3630.7342,N,12004.0533,W,2,12,0.73,50.7,M,-26.9,M,0000,0000*64",15.8901,15.8759141,,,,
16500996,-66,3208,0,0,,15.928788,15.87752613,,,,
17001027,-66,3344,0,0,"$GPGGA,204629.000,3630.7342,N,12004.0533,W,2,12,0.73,50.7,M,-26.9,M,0000,0000*65",15.91428,15.87897693,,,,
17501086,-66,3400,0,0,,15.923952,15.87962173,,,,
18001103,-66,3536,0,0,"$GPGGA,204630.000,3630.7342,N,12004.0533,W,2,12,0.73,50.7,M,-26.9,M,0000,0000*6D",15.880427,15.88171733,,,,
18501135,-67,3592,0,0,,15.904608,15.88139493,,,,
19001139,-67,3648,0,0,,15.904608,15.88397417,,,,
19501206,-67,3784,0,0,"$GPGGA,204631.000,3630.7342,N,12004.0533,W,2,12,0.73,50.7,M,-26.9,M,0000,0000*6C",15.861084,15.88349057,,,,
20001271,-67,3840,0,0,,15.851412,15.88187857,,,,
20501324,-67,3976,0,0,"$GPGGA,204632.000,3630.7342,N,12004.0533,W,2,12,0.73,50.7,M,-26.9,M,0000,0000*6F",15.832067,15.88091133,,,,
21001326,-67,4112,0,0,"$GPGGA,204633.000,3630.7342,N,12004.0532,W,2,12,0.73,50.7,M,-26.9,M,0000,0000*6F",15.948133,15.88268457,,,,
21501388,-68,4168,0,0,,15.943296,15.8863922,,,,
22001393,-67,4304,0,0,"$GPGGA,204634.000,3630.7342,N,12004.0532,W,2,12,0.73,50.7,M,-26.9,M,0000,0000*68",15.943296,15.89009983,,,,
22501428,-67,4360,0,0,,15.84174,15.88881027,,,,
23001469,-67,4496,0,0,"$GPGGA,204635.000,3630.7342,N,12004.0533,W,2,12,0.73,50.7,M,-26.9,M,0000,0000*68",15.962641,15.8905835,,,,
23501496,-66,4552,0,0,,15.919116,15.8907447,,,,
24001527,-67,4608,0,0,,15.894936,15.89332393,,,,
24501539,-66,4744,0,0,"$GPGGA,204636.000,3630.7342,N,12004.0533,W,2,12,0.73,50.7,M,-26.9,M,0000,0000*6B",15.8901,15.89332393,,,,
25001597,-67,4800,0,0,,15.928788,15.89719277,,,,
25501637,-66,4936,0,0,"$GPGGA,204637.000,3630.7342,N,12004.0533,W,2,12,0.73,50.7,M,-26.9,M,0000,0000*6A",15.91428,15.89767637,,,,
26001685,-67,4992,0,0,,15.8901,15.89703157,,,,
26501688,-67,5128,0,0,"$GPGGA,204638.000,3630.7342,N,12004.0533,W,2,12,0.73,50.7,M,-26.9,M,0000,0000*65",15.846576,15.89638677,,,,
27001694,-67,5184,0,0,,15.894936,15.8996108,,,,
27501715,-67,5320,0,0,"$GPGGA,204639.000,3630.7342,N,12004.0533,W,2,12,0.73,50.7,M,-26.9,M,0000,0000*64",15.899772,15.900578,,,,
28001735,-67,5376,0,0,,15.899772,15.90299603,,,,
28501735,-67,5512,0,0,"$GPGGA,204640.000,3630.7342,N,12004.0532,W,2,12,0.73,50.7,M,-26.9,M,0000,0000*6B",15.899772,15.90299603,,,,
29001735,-67,5568,0,0,,15.885263,15.9034796,,,,
29501786,-66,5704,0,0,"$GPGGA,204641.000,3630.7342,N,12004.0532,W,2,12,0.73,50.7,M,-26.9,M,0000,0000*6A",15.894936,15.9023512,,,,
30001851,-67,5760,0,0,,15.919116,15.9018676,,,,
30501894,-66,5896,0,0,"$GPGGA,204642.000,3630.7342,N,12004.0532,W,2,12,0.73,50.7,M,-26.9,M,0000,0000*69",15.909444,15.90057797,,,,
31001929,-66,5952,0,0,,15.923952,15.90170637,,,,
31501958,-66,6088,0,0,"$GPGGA,204643.000,3630.7342,N,12004.0532,W,2,12,0.73,50.7,M,-26.9,M,0000,0000*68",15.93846,15.90202877,,,,
32001971,-66,6144,0,0,,15.885263,15.90106153,,,,
32501984,-66,6280,0,0,"$GPGGA,204644.000,3630.7342,N,12004.0532,W,2,12,0.73,50.7,M,-26.9,M,0000,0000*6F",15.8901,15.89993313,,,,
33002040,-66,6336,0,0,,15.899772,15.90057797,,,,
33502065,-66,6472,0,0,"$GPGGA,204645.000,3630.7342,N,12004.0532,W,2,12,0.73,50.7,M,-26.9,M,0000,0000*6E",15.904608,15.90057797,,,,
34002110,-66,6528,0,0,,15.93846,15.90170637,,,,
34502146,-65,6664,0,0,"$GPGGA,204646.000,3630.7342,N,12004.0532,W,2,12,0.73,50.7,M,-26.9,M,0000,0000*6D",15.894936,15.90283477,,,,
35002154,-68,6720,0,0,,15.894936,15.90428557,,,,
35502219,-66,6856,0,0,"$GPGGA,204647.000,3630.7342,N,12004.0532,W,2,12,0.73,50.7,M,-26.9,M,0000,0000*6C",15.899772,15.9065424,,,,
36002236,-66,6912,0,0,,15.885263,15.90444673,,,,
36502286,-66,7048,0,0,"$GPGGA,204648.000,3630.7342,N,12004.0532,W,2,12,0.73,50.7,M,-26.9,M,0000,0000*63",15.880427,15.9023511,,,,
37002334,-65,7104,0,0,,15.894936,15.9007391,,,,
37502335,-65,7240,0,0,"$GPGGA,204649.000,3630.7342,N,12004.0532,W,2,12,0.73,50.7,M,-26.9,M,0000,0000*62",15.875592,15.9018675,,,,
38002362,-65,7296,0,0,,15.904608,15.89993307,,,,
38502417,-65,7432,0,0,"$GPGGA,204650.000,3630.7342,N,12004.0532,W,2,12,0.73,50.7,M,-26.9,M,0000,0000*6A",15.822395,15.89670903,,,,
39002483,-65,7488,0,0,,15.807887,15.8938074,,,,
39502526,-65,7624,0,0,"$GPGGA,204651.000,3630.7342,N,12004.0532,W,2,12,0.73,50.7,M,-26.9,M,0000,0000*6B",15.822395,15.89155057,,,,
40002542,-66,7680,0,0,,15.923952,15.89138937,,,,
40502597,-67,7816,0,0,"$GPGGA,204652.000,3630.7342,N,12004.0532,W,2,12,0.73,50.7,M,-26.9,M,0000,0000*68",15.904608,15.89106697,,,,
41002636,-67,7872,0,0,,15.93846,15.89267897,,,,
41502639,-66,8008,0,0,"$GPGGA,204653.000,3630.7342,N,12004.0532,W,2,12,0.73,50.7,M,-26.9,M,0000,0000*69",15.894936,15.89429097,,,,
42002705,-67,8064,0,0,,15.928788,15.89541937,,,,
42502708,-66,8200,0,0,"$GPGGA,204654.000,3630.7342,N,12004.0532,W,2,12,0.73,50.7,M,-26.9,M,0000,0000*6E",15.962641,15.897515,,,,
43002747,-66,8256,0,0,,15.909444,15.8978374,,,,
43502777,-66,8392,0,0,"$GPGGA,204655.000,3630.7342,N,12004.0532,W,2,12,0.73,50.7,M,-26.9,M,0000,0000*6F",15.933624,15.8989658,,,,
44002812,-67,8448,0,0,,15.8901,15.89912703,,,,
44502859,-67,8584,0,0,"$GPGGA,204656.000,3630.7342,N,12004.0532,W,2,12,0.73,50.7,M,-26.9,M,0000,0000*6C",15.8901,15.89896583,,,,
45002916,-67,8640,0,0,,15.957805,15.90025547,,,,
45502951,-66,8776,0,0,"$GPGGA,204657.000,3630.7342,N,12004.0532,W,2,12,0.73,50.7,M,-26.9,M,0000,0000*6D",15.933624,15.90106147,,,,
46002998,-66,8832,0,0,,15.880427,15.89961063,,,,
46503028,-67,8968,0,0,"$GPGGA,204658.000,3630.7342,N,12004.0532,W,2,12,0.73,50.7,M,-26.9,M,0000,0000*62",15.836904,15.89622543,,,,
47003067,-67,9024,0,0,,15.928788,15.89767627,,,,
47503068,-67,9160,0,0,"$GPGGA,204659.000,3630.7342,N,12004.0532,W,2,12,0.73,50.7,M,-26.9,M,0000,0000*63",15.836904,15.89590307,,,,
48003110,-67,9216,0,0,,15.8901,15.89558067,,,,
48503164,-67,9352,0,0,"$GPGGA,204700.000,3630.7342,N,12004.0532,W,2,12,0.73,50.7,M,-26.9,M,0000,0000*6E",15.861084,15.89412987,,,,
49003209,-66,9408,0,0,,15.909444,15.89316267,,,,
49503229,-67,9544,0,0,"$GPGGA,204701.000,3630.7342,N,12004.0532,W,2,12,0.73,50.7,M,-26.9,M,0000,0000*6F",15.8901,15.89300147,,,,
50003250,-67,9600,0,0,,15.919116,15.89380747,,,,
50503290,-69,9736,0,0,"$GPGGA,204702.000,3630.7342,N,12004.0532,W,2,12,0.73,50.7,M,-26.9,M,0000,0000*6C",15.817559,15.89106703,,,,
51003347,-68,9792,0,0,,15.904608,15.89171187,,,,
51503376,-68,9928,0,0,"$GPGGA,204703.000,3630.7342,N,12004.0532,W,2,12,0.73,50.7,M,-26.9,M,0000,0000*6D",15.861084,15.8910671,,,,
52003389,-68,9984,0,0,,15.880427,15.89058347,,,,
52503389,-66,10120,0,0,"$GPGGA,204704.000,3630.7342,N,12004.0532,W,2,12,0.73,50.7,M,-26.9,M,0000,0000*6A",15.851412,15.88977747,,,,
53003389,-67,10176,0,0,,15.832067,15.88735943,,,,
53503395,-67,10312,0,0,"$GPGGA,204705.000,3630.7342,N,12004.0532,W,2,12,0.73,50.7,M,-26.9,M,0000,0000*6B",15.904608,15.89009987,,,,
54003431,-67,10368,0,0,,15.919116,15.8938075,,,,
54503462,-67,10504,0,0,"$GPGGA,204706.000,3630.7342,N,12004.0532,W,2,12,0.73,50.7,M,-26.9,M,0000,0000*68",15.798215,15.8930015,,,,
55003512,-67,10560,0,0,,15.875592,15.8913895,,,,
55503561,-67,10696,0,0,"$GPGGA,204707.000,3630.7342,N,12004.0532,W,2,12,0.73,50.7,M,-26.9,M,0000,0000*69",15.880427,15.89058347,,,,
56003620,-67,10752,0,0,,15.851412,15.88768187,,,,
56503662,-67,10888,0,0,"$GPGGA,204708.000,3630.7342,N,12004.0532,W,2,12,0.73,50.7,M,-26.9,M,0000,0000*66",15.91428,15.88832667,,,,
57003688,-67,10944,0,0,,15.875592,15.88655347,,,,
57503744,-67,11080,0,0,"$GPGGA,204709.000,3630.7342,N,12004.0532,W,2,12,0.73,50.7,M,-26.9,M,0000,0000*67",15.870756,15.88349063,,,,
58003799,-67,11136,0,0,,15.928788,15.88413543,,,,
58503832,-67,11272,0,0,"$GPGGA,204710.000,3630.7342,N,12004.0532,W,2,12,0.73,50.7,M,-26.9,M,0000,0000*6F",15.86592,15.88187863,,,,
59003867,-67,11328,0,0,,15.846576,15.88042783,,,,
59503913,-67,11464,0,0,"$GPGGA,204711.000,3630.7342,N,12004.0532,W,2,12,0.73,50.7,M,-26.9,M,0000,0000*6E",15.793379,15.8772038,,,,
60003943,-67,11520,0,0,,15.8901,15.87494697,,,,
60503984,-68,11576,0,0,,15.899772,15.87381857,,,,
61003998,-67,11712,0,0,"$GPGGA,204712.000,3630.7342,N,12004.0532,W,2,12,0.73,50.7,M,-26.9,M,0000,0000*6D",15.894936,15.8743022,,,,
61509993,-68,11848,0,0,"$GPGGA,204713.000,3630.7342,N,12004.0532,W,2,12,0.73,50.7,M,-26.9,M,0000,0000*6C",15.861084,15.8751082,,,,
62009998,-68,11904,0,0,,15.851412,15.872529,,,,
62510044,-67,11960,0,0,,15.885263,15.87414097,,,,
63010044,-68,12096,0,0,"$GPGGA,204714.000,3630.7342,N,12004.0532,W,2,12,0.73,50.7,M,-26.9,M,0000,0000*6B",15.880427,15.87381853,,,,
63510101,-67,12152,0,0,,15.759526,15.87043327,,,,
64010161,-66,12288,0,0,"$GPGGA,204715.000,3630.7342,N,12004.0532,W,2,12,0.73,50.7,M,-26.9,M,0000,0000*6A",15.827231,15.86769283,,,,
64510185,-66,12344,0,0,,15.899772,15.86801523,,,,
65010187,-66,12480,0,0,"$GPGGA,204716.000,3630.7342,N,12004.0532,W,2,12,0.73,50.7,M,-26.9,M,0000,0000*69",15.899772,15.86737043,,,,
65510225,-67,12536,0,0,,15.875592,15.86930487,,,,
66010248,-67,12672,0,0,"$GPGGA,204717.000,3630.7342,N,12004.0532,W,2,12,0.73,50.7,M,-26.9,M,0000,0000*68",15.856248,15.86769287,,,,
66510304,-67,12728,0,0,,15.846576,15.86720927,,,,
67010326,-66,12864,0,0,"$GPGGA,204718.000,3630.7342,N,12004.0532,W,2,12,0.73,50.7,M,-26.9,M,0000,0000*67",15.894936,15.8676929,,,,
67510393,-66,12920,0,0,,15.8901,15.8689825,,,,
68010455,-65,13056,0,0,"$GPGGA,204719.000,3630.7342,N,12004.0532,W,2,12,0.73,50.7,M,-26.9,M,0000,0000*66",15.885263,15.8707557,,,,
68510464,-66,13112,0,0,,15.885263,15.87011087,,,,
69010524,-66,13248,0,0,"$GPGGA,204720.000,3630.7342,N,12004.0532,W,2,12,0.73,50.7,M,-26.9,M,0000,0000*6C",15.919116,15.87011087,,,,
69510560,-65,13304,0,0,,15.880427,15.87285127,,,,
70010579,-65,13440,0,0,"$GPGGA,204721.000,3630.7342,N,12004.0532,W,2,12,0.73,50.7,M,-26.9,M,0000,0000*6D",15.870756,15.87269007,,,,
70510611,-66,13496,0,0,,15.846576,15.8715617,,,,
71010617,-66,13632,0,0,"$GPGGA,204722.000,3630.7342,N,12004.0532,W,2,12,0.73,50.7,M,-26.9,M,0000,0000*6E",15.870756,15.8722065,,,,
71510643,-66,13688,0,0,,15.851412,15.8701109,,,,
72010664,-66,13824,0,0,"$GPGGA,204723.000,3630.7342,N,12004.0532,W,2,12,0.73,50.7,M,-26.9,M,0000,0000*6F",15.851412,15.8693049,,,,
72510729,-66,13880,0,0,,15.904608,15.8704333,,,,
73010774,-66,14016,0,0,"$GPGGA,204724.000,3630.7342,N,12004.0532,W,2,12,0.73,50.7,M,-26.9,M,0000,0000*68",15.851412,15.8678541,,,,
73510800,-66,14072,0,0,,15.909444,15.8693049,,,,
74010830,-66,14208,0,0,"$GPGGA,204725.000,3630.7342,N,12004.0532,W,2,12,0.73,50.7,M,-26.9,M,0000,0000*69",15.870756,15.8701109,,,,
74510854,-75,14264,0,0,,15.885263,15.8731737,,,,
75010873,-79,14400,0,0,"$GPGGA,204726.000,3630.7342,N,12004.0532,W,2,12,0.73,50.7,M,-26.9,M,0000,0000*6A",15.861084,15.8722065,,,,
75510894,-78,14456,0,0,,15.919116,15.8728513,,,,
76010949,-81,14592,0,0,"$GPGGA,204727.000,3630.7342,N,12004.0532,W,2,12,0.73,50.7,M,-26.9,M,0000,0000*6B",15.894936,15.8728513,,,,
76511009,-66,14648,0,0,,15.919116,15.8747857,,,,
77011078,-65,14784,0,0,"$GPGGA,204728.000,3630.7342,N,12004.0532,W,2,12,0.73,50.7,M,-26.9,M,0000,0000*64",15.84174,15.8744633,,,,
77511093,-65,14840,0,0,,15.774035,15.8707557,,,,
78011122,-65,14976,0,0,"$GPGGA,204729.000,3630.7342,N,12004.0532,W,2,12,0.73,50.7,M,-26.9,M,0000,0000*65",15.904608,15.87156173,,,,
78511193,-66,15032,0,0,,15.91428,15.8767202,,,,
79011200,-65,15168,0,0,"$GPGGA,204730.000,3630.7342,N,12004.0532,W,2,12,0.73,50.7,M,-26.9,M,0000,0000*6D",15.817559,15.8763978,,,,
79511221,-66,15224,0,0,,15.870756,15.8754306,,,,
80011250,-66,15360,0,0,"$GPGGA,204731.000,3630.7342,N,12004.0532,W,2,12,0.73,50.7,M,-26.9,M,0000,0000*6C",15.894936,15.8752694,,,,
80511264,-78,15416,0,0,,15.894936,15.8759142,,,,
81011293,-78,15552,0,0,"$GPGGA,204732.000,3630.7342,N,12004.0532,W,2,12,0.73,50.7,M,-26.9,M,0000,0000*6F",15.880427,15.87672017,,,,
81511304,-78,15608,0,0,,15.84174,15.87655897,,,,
82011306,-79,15744,0,0,"$GPGGA,204733.000,3630.7342,N,12004.0532,W,2,12,0.73,50.7,M,-26.9,M,0000,0000*6E",15.84174,15.87478577,,,,
82511373,-78,15800,0,0,,15.933624,15.87623657,,,,
83011391,-81,15936,0,0,"$GPGGA,204734.000,3630.7342,N,12004.0532,W,2,12,0.73,50.7,M,-26.9,M,0000,0000*69",15.8901,15.8763978,,,,
83511458,-80,15992,0,0,,15.928788,15.87784863,,,,
84011525,-76,16128,0,0,"$GPGGA,204735.000,3630.7342,N,12004.0532,W,2,12,0.73,50.7,M,-26.9,M,0000,0000*68",15.798215,15.8738186,,,,
84511562,-83,16184,0,0,,15.923952,15.87526943,,,,
85011579,-65,16320,0,0,"$GPGGA,204736.000,3630.7342,N,12004.0532,W,2,12,0.73,50.7,M,-26.9,M,0000,0000*6B",15.919116,15.87688143,,,,
85511635,-64,16376,0,0,,15.817559,15.8759142,,,,
86011674,-64,16512,0,0,"$GPGGA,204737.000,3630.7342,N,12004.0532,W,2,12,0.73,50.7,M,-26.9,M,0000,0000*6A",15.933624,15.8780098,,,,
86511680,-66,16568,0,0,,15.933624,15.8807502,,,,
87011694,-66,16704,0,0,"$GPGGA,204738.000,3630.7342,N,12004.0532,W,2,12,0.73,50.7,M,-26.9,M,0000,0000*65",15.933624,15.8834906,,,,
87511735,-79,16760,0,0,,15.817559,15.88058897,,,,
88011803,-66,16896,0,0,"$GPGGA,204739.000,3630.7342,N,12004.0532,W,2,12,0.73,50.7,M,-26.9,M,0000,0000*64",15.909444,15.88252337,,,,
88511825,-80,16952,0,0,,15.870756,15.88123377,,,,
89011848,-78,17088,0,0,"$GPGGA,204740.000,3630.7342,N,12004.0532,W,2,12,0.73,50.7,M,-26.9,M,0000,0000*6A",15.836904,15.88010537,,,,
89511873,-77,17144,0,0,,15.875592,15.879783,,,,
90511983,-81,17200,0,0,,15.899772,15.8810726,,,,
91012024,-81,17336,0,0,"$GPGGA,204742.000,3630.7342,N,12004.0532,W,2,12,0.73,50.7,M,-26.9,M,0000,0000*68",15.8901,15.8801054,,,,
91512035,-81,17392,0,0,,15.928788,15.8812338,,,,
92012094,-67,17528,0,0,"$GPGGA,204740*69",15.880427,15.87994417,,,,
93512206,-73,17584,0,0,,15.8901,15.88155617,,,,
94012230,-73,17720,0,0,"$GPGGA,204745.000,3630.7342,N,12004.0532,W,2,12,0.73,50.7,M,-26.9,M,0000,0000*6F",15.919116,15.8863922,,,,
94512291,-73,17776,0,0,,15.894936,15.8860698,,,,
95012312,-73,17912,0,0,"$GPGGA,204746.000,3630.7342,N,12004.0532,W,2,12,0.73,50.7,M,-26.9,M,0000,0000*6C",15.885263,15.88510257,,,,
95512372,-72,17968,0,0,,15.894936,15.8876818,,,,
96012409,-66,18104,0,0,"$GPGGA,204747.000,3630.7342,N,12004.0532,W,2,12,0.73,50.7,M,-26.9,M,0000,0000*6D",15.972313,15.89106703,,,,
96512411,-67,18160,0,0,,15.93846,15.89251783,,,,
97012457,-66,18296,0,0,"$GPGGA,204748.000,3630.7342,N,12004.0532,W,2,12,0.73,50.7,M,-26.9,M,0000,0000*62",15.919116,15.89332383,,,,
97512454,-65,18352,0,0,,15.919116,15.89461347,,,,
98012463,-66,18488,0,0,"$GPGGA,204749.000,3630.7342,N,12004.0532,W,2,12,0.73,50.7,M,-26.9,M,0000,0000*63",15.909444,15.89687027,,,,
98512478,-66,18544,0,0,,15.8901,15.89848227,,,,
99012525,-67,18680,0,0,"$GPGGA,204750.000,3630.7342,N,12004.0532,W,2,12,0.73,50.7,M,-26.9,M,0000,0000*6B",15.919116,15.89799867,,,,
99512582,-67,18736,0,0,,15.909444,15.89864347,,,,
100012648,-67,18872,0,0,"$GPGGA,204751.000,3630.7342,N,12004.0532,W,2,12,0.73,50.7,M,-26.9,M,0000,0000*6A",15.909444,15.89799867,,,,
100512652,-68,18928,0,0,,15.846576,15.8996107,,,,
101012682,-72,18984,0,0,,15.885263,15.89832107,,,,
101512694,-67,19120,0,0,"$GPGGA,204752.000,3630.7342,N,12004.0532,W,2,12,0.73,50.7,M,-26.9,M,0000,0000*69",15.899772,15.89767627,,,,
102017846,-67,19256,0,0,"$GPGGA,204753.000,3630.7342,N,12004.0532,W,2,12,0.73,50.7,M,-26.9,M,0000,0000*68",15.885263,15.89993307,,,,
102517902,-67,19312,0,0,,15.836904,15.89670907,,,,
103517916,-68,19448,0,0,"$GPGGA,204754.000,3630.7342,N,12004.0532,W,2,12,0.73,50.7,M,-26.9,M,0000,0000*6F",15.904608,15.89574187,,,,
104017946,-68,19504,0,0,,15.91428,15.89509707,,,,
104517958,-67,19640,0,0,"$GPGGA,204755.000,3630.7342,N,12004.0532,W,2,12,0.73,50.7,M,-26.9,M,0000,0000*6E",15.948133,15.89944953,,,,
105017962,-68,19696,0,0,,15.84174,15.89719273,,,,
105517985,-69,19832,0,0,"$GPGGA,204756.000,3630.7342,N,12004.0532,W,2,12,0.73,50.7,M,-26.9,M,0000,0000*6D",15.91428,15.89864353,,,,
106018021,-69,19888,0,0,,15.861084,15.89944953,,,,
106518090,-73,20024,0,0,"$GPGGA,204757.000,3630.7342,N,12004.0532,W,2,12,0.73,50.7,M,-26.9,M,0000,0000*6C",15.894936,15.90009433,,,,
107018162,-73,20080,0,0,,15.91428,15.90057793,,,,
107518223,-75,20216,0,0,"$GPGGA,204758.000,3630.7342,N,12004.0532,W,2,12,0.73,50.7,M,-26.9,M,0000,0000*63",15.91428,15.90138393,,,,
108018233,-74,20272,0,0,,15.967477,15.90267357,,,,
108518250,-74,20408,0,0,"$GPGGA,204759.000,3630.7342,N,12004.0532,W,2,12,0.73,50.7,M,-26.9,M,0000,0000*62",15.967477,15.90557523,,,,
109018305,-74,20464,0,0,,15.972313,15.90831567,,,,
109518305,-72,20600,0,0,"$GPGGA,204800.000,3630.7342,N,12004.0532,W,2,12,0.73,50.7,M,-26.9,M,0000,0000*61",15.8901,15.90734847,,,,
110018334,-71,20656,0,0,,15.899772,15.90750967,,,,
110518360,-72,20792,0,0,"$GPGGA,204801.000,3630.7342,N,12004.0532,W,2,12,0.73,50.7,M,-26.9,M,0000,0000*60",15.899772,15.9079933,,,,
111018372,-74,20848,0,0,,15.861084,15.9068649,,,,
111518441,-72,20984,0,0,"$GPGGA,204802.000,3630.7342,N,12004.0532,W,2,12,0.73,50.7,M,-26.9,M,0000,0000*63",15.919116,15.90509167,,,,
112018463,-70,21040,0,0,,15.861084,15.90251247,,,,
112518480,-69,21176,0,0,"$GPGGA,204803.000,3630.7342,N,12004.0532,W,2,12,0.73,50.7,M,-26.9,M,0000,0000*62",15.972313,15.9042857,,,,
113018527,-69,21232,0,0,,15.870756,15.9026737,,,,
113518548,-69,21368,0,0,"$GPGGA,204804.000,3630.7342,N,12004.0532,W,2,12,0.73,50.7,M,-26.9,M,0000,0000*65",15.909444,15.9026737,,,,
114018612,-69,21424,0,0,,15.832067,15.90073927,,,,
114518659,-69,21560,0,0,"$GPGGA,204805.000,3630.7342,N,12004.0532,W,2,12,0.73,50.7,M,-26.9,M,0000,0000*64",15.904608,15.90025567,,,,
115018708,-69,21616,0,0,,15.856248,15.89848247,,,,
115518708,-69,21752,0,0,"$GPGGA,204806.000,3630.7342,N,12004.0532,W,2,12,0.73,50.7,M,-26.9,M,0000,0000*67",15.923952,15.89896607,,,,
116018750,-69,21808,0,0,,15.943296,15.90219007,,,,
116518813,-69,21944,0,0,"$GPGGA,204807.000,3630.7342,N,12004.0532,W,2,12,0.73,50.7,M,-26.9,M,0000,0000*66",15.919116,15.9033185,,,,
117018820,-69,22000,0,0,,15.86592,15.9021901,,,,
117518874,-69,22136,0,0,"$GPGGA,204808.000,3630.7342,N,12004.0532,W,2,12,0.73,50.7,M,-26.9,M,0000,0000*69",15.962641,15.90476937,,,,
118018915,-69,22192,0,0,,15.86592,15.90573657,,,,
118518958,-70,22328,0,0,"$GPGGA,204809.000,3630.7342,N,12004.0532,W,2,12,0.73,50.7,M,-26.9,M,0000,0000*68",15.923952,15.90638137,,,,
119018996,-69,22384,0,0,,15.851412,15.90428577,,,,
119519040,-80,22520,0,0,"$GPGGA,204810.000,3630.7342,N,12004.0532,W,2,12,0.73,50.7,M,-26.9,M,0000,0000*60",15.909444,15.90299613,,,,
120019064,-70,22576,0,0,,15.774035,15.9007393,,,,
120519067,-72,22712,0,0,"$GPGGA,204811.000,3630.7342,N,12004.0532,W,2,12,0.73,50.7,M,-26.9,M,0000,0000*61",15.91428,15.9007393,,,,
121019093,-72,22768,0,0,,15.86592,15.9009005,,,,
121519105,-70,22904,0,0,"$GPGGA,204812.000,3630.7342,N,12004.0532,W,2,12,0.73,50.7,M,-26.9,M,0000,0000*62",15.894936,15.9009005,,,,
122019174,-70,22960,0,0,,15.952969,15.90219013,,,,
122519223,-73,23096,0,0,"$GPGGA,204813.000,3630.7342,N,12004.0532,W,2,12,0.73,50.7,M,-26.9,M,0000,0000*63",15.880427,15.9010617,,,,
123019278,-72,23152,0,0,,15.798215,15.89541963,,,,
123519334,-72,23288,0,0,"$GPGGA,204814.000,3630.7342,N,12004.0532,W,2,12,0.73,50.7,M,-26.9,M,0000,0000*64",15.928788,15.89413,,,,
124019374,-73,23344,0,0,,15.86592,15.89058357,,,,
124519431,-73,23480,0,0,"$GPGGA,204815.000,3630.7342,N,12004.0532,W,2,12,0.73,50.7,M,-26.9,M,0000,0000*65",15.778871,15.88687593,,,,
125019486,-73,23536,0,0,,15.846576,15.88510273,,,,
125519551,-75,23672,0,0,"$GPGGA,204816.000,3630.7342,N,12004.0532,W,2,12,0.73,50.7,M,-26.9,M,0000,0000*66",15.861084,15.88381313,,,,
126019612,-75,23728,0,0,,15.856248,15.88365193,,,,
126519666,-72,23864,0,0,"$GPGGA,204817.000,3630.7342,N,12004.0532,W,2,12,0.73,50.7,M,-26.9,M,0000,0000*67",15.846576,15.88123393,,,,
127019708,-73,23920,0,0,,15.894936,15.88236233,,,,
127519767,-73,24056,0,0,"$GPGGA,204818.000,3630.7342,N,12004.0532,W,2,12,0.73,50.7,M,-26.9,M,0000,0000*68",15.846576,15.8781711,,,,
128019834,-73,24112,0,0,,15.86592,15.8780099,,,,
128519896,-73,24248,0,0,"$GPGGA,204819.000,3630.7342,N,12004.0532,W,2,12,0.73,50.7,M,-26.9,M,0000,0000*69",15.894936,15.8775263,,,,
129019965,-73,24304,0,0,,15.870756,15.87881593,,,,
129519978,-73,24440,0,0,"$GPGGA,204820.000,3630.7342,N,12004.0532,W,2,12,0.73,50.7,M,-26.9,M,0000,0000*63",15.807887,15.8755919,,,,
130019993,-73,24496,0,0,,15.84174,15.8751083,,,,
130520005,-72,24632,0,0,"$GPGGA,204821.000,3630.7342,N,12004.0532,W,2,12,0.73,50.7,M,-26.9,M,0000,0000*62",15.899772,15.8743023,,,,
131020024,-73,24688,0,0,,15.861084,15.8715619,,,,
131520082,-73,24824,0,0,"$GPGGA,204822.000,3630.7342,N,12004.0532,W,2,12,0.73,50.7,M,-26.9,M,0000,0000*61",15.84174,15.8689827,,,,
132020104,-73,24880,0,0,,15.870756,15.8691439,,,,
132520166,-73,25016,0,0,"$GPGGA,204823.000,3630.7342,N,12004.0532,W,2,12,0.73,50.7,M,-26.9,M,0000,0000*60",15.793379,15.86350183,,,,
133020207,-73,25072,0,0,,15.798215,15.861245,,,,
133520249,-73,25208,0,0,"$GPGGA,204824.000,3630.7342,N,12004.0532,W,2,12,0.73,50.7,M,-26.9,M,0000,0000*67",15.803051,15.85721497,,,,
134020290,-74,25264,0,0,,15.769198,15.8544745,,,,
134520319,-73,25400,0,0,"$GPGGA,204825.000,3630.7342,N,12004.0532,W,2,12,0.73,50.7,M,-26.9,M,0000,0000*66",15.836904,15.8520565,,,,
135020333,-74,25456,0,0,,15.807887,15.8531849,,,,
135520369,-72,25592,0,0,"$GPGGA,204826.000,3630.7342,N,12004.0532,W,2,12,0.73,50.7,M,-26.9,M,0000,0000*65",15.861084,15.8514117,,,,
136020403,-72,25648,0,0,,15.75469,15.84770403,,,,
136520451,-72,25784,0,0,"$GPGGA,204827.000,3630.7342,N,12004.0532,W,2,12,0.73,50.7,M,-26.9,M,0000,0000*64",15.875592,15.84705923,,,,
137020497,-73,25840,0,0,,15.817559,15.84254557,,,,
137520561,-72,25976,0,0,"$GPGGA,204828.000,3630.7342,N,12004.0532,W,2,12,0.73,50.7,M,-26.9,M,0000,0000*6B",15.952969,15.84496363,,,,
138020602,-72,26032,0,0,,15.919116,15.84899367,,,,
138520655,-72,26168,0,0,"$GPGGA,204829.000,3630.7342,N,12004.0532,W,2,12,0.73,50.7,M,-26.9,M,0000,0000*6A",15.952969,15.8497997,,,,
139020697,-73,26224,0,0,,15.957805,15.85286253,,,,
139520720,-71,26360,0,0,"$GPGGA,204830.000,3630.7342,N,12004.0532,W,2,12,0.73,50.7,M,-26.9,M,0000,0000*62",15.899772,15.85689257,,,,
140020730,-72,26416,0,0,,15.817559,15.85592533,,,,
140520734,-73,26552,0,0,"$GPGGA,204831.000,3630.7342,N,12004.0532,W,2,12,0.73,50.7,M,-26.9,M,0000,0000*63",15.943296,15.85866573,,,,
141020742,-73,26608,0,0,,15.861084,15.85882693,,,,
141520779,-72,26744,0,0,"$GPGGA,204832.000,3630.7342,N,12004.0532,W,2,12,0.73,50.7,M,-26.9,M,0000,0000*60",15.880427,15.8599553,,,,
142020833,-72,26800,0,0,,15.899772,15.8601165,,,,
142520890,-74,26856,0,0,,15.86592,15.8607613,,,,
143020938,-77,26992,0,0,"$GPGGA,204833.000,3630.7342,N,12004.0532,W,2,12,0.73,50.7,M,-26.9,M,0000,0000*61",15.919116,15.8625345,,,,
143520939,-75,27048,0,0,,15.870756,15.8617285,,,,
144020949,-74,27184,0,0,"$GPGGA,204834.000,3630.7342,N,12004.0532,W,2,12,0.73,50.7,M,-26.9,M,0000,0000*66",15.8901,15.8623733,,,,
144520965,-73,27240,0,0,,15.894936,15.86527493,,,,
145021009,-74,27376,0,0,"$GPGGA,204835.000,3630.7342,N,12004.0532,W,2,12,0.73,50.7,M,-26.9,M,0000,0000*67",15.803051,15.8639853,,,,
145521059,-73,27432,0,0,,15.861084,15.8626957,,,,
146021121,-73,27568,0,0,"$GPGGA,204836.000,3630.7342,N,12004.0532,W,2,12,0.73,50.7,M,-26.9,M,0000,0000*64",15.846576,15.8622121,,,,
146521174,-73,27624,0,0,,15.91428,15.8646301,,,,
147021176,-73,27760,0,0,"$GPGGA,204837.000,3630.7342,N,12004.0532,W,2,12,0.73,50.7,M,-26.9,M,0000,0000*65",15.928788,15.8665645,,,,
147521233,-72,27816,0,0,,15.846576,15.86833773,,,,
148021291,-72,27952,0,0,"$GPGGA,204838.000,3630.7342,N,12004.0532,W,2,12,0.73,50.7,M,-26.9,M,0000,0000*6A",15.822395,15.86914373,,,,
148521303,-73,28008,0,0,,15.86592,15.87123937,,,,
149021345,-73,28144,0,0,"$GPGGA,204839.000,3630.7342,N,12004.0532,W,2,12,0.73,50.7,M,-26.9,M,0000,0000*6B",15.894936,15.87543063,,,,
149521411,-72,28200,0,0,,15.899772,15.87752623,,,,
150021442,-73,28336,0,0,"$GPGGA,204840.000,3630.7342,N,12004.0532,W,2,12,0.73,50.7,M,-26.9,M,0000,0000*65",15.91428,15.88107267,,,,
150521497,-74,28392,0,0,,15.8901,15.88203987,,,,
151021542,-74,28528,0,0,"$GPGGA,204841.000,3630.7342,N,12004.0532,W,2,12,0.73,50.7,M,-26.9,M,0000,0000*64",15.86592,15.88574753,,,,
151521566,-74,28584,0,0,,15.8901,15.88623113,,,,
152021585,-73,28720,0,0,"$GPGGA,204842.000,3630.7342,N,12004.0532,W,2,12,0.73,50.7,M,-26.9,M,0000,0000*67",15.909444,15.88929397,,,,
152521647,-73,28776,0,0,,15.981985,15.89026117,,,,
153021649,-70,28912,0,0,"$GPGGA,204843.000,3630.7342,N,12004.0532,W,2,12,0.73,50.7,M,-26.9,M,0000,0000*66",15.981985,15.8923568,,,,
153521664,-72,28968,0,0,,16.011002,15.89429123,,,,
154021720,-70,29104,0,0,"$GPGGA,204844.000,3630.7342,N,12004.0532,W,2,12,0.73,50.7,M,-26.9,M,0000,0000*61",15.972313,15.89477483,,,,
154521786,-68,29160,0,0,,16.030346,15.8991273,,,,
155021841,-67,29296,0,0,"$GPGGA,204845.000,3630.7342,N,12004.0532,W,2,12,0.73,50.7,M,-26.9,M,0000,0000*60",16.011002,15.9055754,,,,
155521878,-68,29352,0,0,,15.948133,15.90573663,,,,
156021942,-67,29488,0,0,"$GPGGA,204846.000,3630.7342,N,12004.0532,W,2,12,0.73,50.7,M,-26.9,M,0000,0000*63",15.943296,15.90847703,,,,
156521969,-67,29544,0,0,,15.977149,15.9117011,,,,
157022032,-67,29680,0,0,"$GPGGA,204847.000,3630.7342,N,12004.0532,W,2,12,0.73,50.7,M,-26.9,M,0000,0000*62",16.025509,15.91589233,,,,
157522066,-67,29736,0,0,,16.006166,15.9205672,,,,
158022105,-67,29872,0,0,"$GPGGA,204848.000,3630.7342,N,12004.0532,W,2,12,0.73,50.7,M,-26.9,M,0000,0000*6D",16.001329,15.92330763,,,,
159022153,-67,30008,0,0,"$GPGGA,204849.000,3630.7342,N,12004.0532,W,2,12,0.73,50.7,M,-26.9,M,0000,0000*6C",16.025509,15.92846607,,,,
159522187,-67,30064,0,0,,15.981985,15.9315289,,,,
160022233,-67,30200,0,0,"$GPGGA,204850.000,3630.7342,N,12004.0532,W,2,12,0.73,50.7,M,-26.9,M,0000,0000*64",15.991657,15.93475293,,,,
160522271,-67,30256,0,0,,15.996493,15.941201,,,,
161022331,-67,30392,0,0,"$GPGGA,204851.000,3630.7342,N,12004.0532,W,2,12,0.73,50.7,M,-26.9,M,0000,0000*65",15.972313,15.94490863,,,,
161522332,-66,30448,0,0,,15.991657,15.94974467,,,,
162022376,-66,30584,0,0,"$GPGGA,204852.000,3630.7342,N,12004.0532,W,2,12,0.73,50.7,M,-26.9,M,0000,0000*66",15.943296,15.95071187,,,,
162522444,-65,30640,0,0,,16.035181,15.9542583,,,,
163022473,-65,30776,0,0,"$GPGGA,204853.000,3630.7342,N,12004.0532,W,2,12,0.73,50.7,M,-26.9,M,0000,0000*67",15.986821,15.95893313,,,,
163522473,-66,30832,0,0,,15.996493,15.9647364,,,,
164022525,-66,30968,0,0,"$GPGGA,204854.000,3630.7342,N,12004.0532,W,2,12,0.73,50.7,M,-26.9,M,0000,0000*60",16.001329,15.96925003,,,,
164522542,-67,31024,0,0,,15.957805,15.97134567,,,,
165022597,-67,31160,0,0,"$GPGGA,204855.000,3630.7342,N,12004.0532,W,2,12,0.73,50.7,M,-26.9,M,0000,0000*61",16.054525,15.9765041,,,,
165522639,-67,31216,0,0,,15.986821,15.97892213,,,,
166022639,-65,31352,0,0,"$GPGGA,204856.000,3630.7342,N,12004.0532,W,2,12,0.73,50.7,M,-26.9,M,0000,0000*62",15.986821,15.98214617,,,,
166522666,-65,31408,0,0,,16.011002,15.98698223,,,,
167022697,-65,31544,0,0,"$GPGGA,204857.000,3630.7342,N,12004.0532,W,2,12,0.73,50.7,M,-26.9,M,0000,0000*63",16.001329,15.99068987,,,,
167522708,-66,31600,0,0,,16.001329,15.9937527,,,,
168022770,-66,31736,0,0,"$GPGGA,204858.000,3630.7342,N,12004.0532,W,2,12,0.73,50.7,M,-26.9,M,0000,0000*6C",15.967477,15.9932691,,,,
168522777,-65,31792,0,0,,15.991657,15.9935915,,,,
169022781,-65,31928,0,0,"$GPGGA,204859.000,3630.7342,N,12004.0532,W,2,12,0.73,50.7,M,-26.9,M,0000,0000*6D",15.957805,15.99181827,,,,
169522830,-66,31984,0,0,,15.962641,15.99149587,,,,
170022891,-64,32120,0,0,"$GPGGA,204900.000,3630.7342,N,12004.0532,W,2,12,0.73,50.7,M,-26.9,M,0000,0000*60",16.011002,15.99085107,,,,
170522924,-64,32176,0,0,,15.977149,15.98972263,,,,
171022931,-65,32312,0,0,"$GPGGA,204901.000,3630.7342,N,12004.0532,W,2,12,0.73,50.7,M,-26.9,M,0000,0000*61",15.967477,15.99036743,,,,
171522941,-64,32368,0,0,,15.93846,15.99020623,,,,
172022981,-64,32504,0,0,"$GPGGA,204902.000,3630.7342,N,12004.0532,W,2,12,0.73,50.7,M,-26.9,M,0000,0000*62",16.006166,15.99117347,,,,
172522991,-64,32560,0,0,,15.967477,15.98923907,,,,
173023028,-66,32696,0,0,"$GPGGA,204903.000,3630.7342,N,12004.0532,W,2,12,0.73,50.7,M,-26.9,M,0000,0000*63",15.93846,15.9869822,,,,
173523050,-66,32752,0,0,,15.807887,15.98053413,,,,
174023071,-67,32888,0,0,"$GPGGA,204904.000,3630.7342,N,12004.0532,W,2,12,0.73,50.7,M,-26.9,M,0000,0000*64",16.001329,15.97972813,,,,
174523124,-67,32944,0,0,,15.996493,15.98021173,,,,
175023165,-67,33080,0,0,"$GPGGA,204905.000,3630.7342,N,12004.0532,W,2,12,0.73,50.7,M,-26.9,M,0000,0000*65",15.909444,15.9774713,,,,
175523166,-67,33136,0,0,,16.011002,15.97795493,,,,
176023168,-68,33272,0,0,"$GPGGA,204906.000,3630.7342,N,12004.0532,W,2,12,0.73,50.7,M,-26.9,M,0000,0000*66",16.006166,15.97908337,,,,
177023243,-68,33328,0,0,,15.991657,15.97908337,,,,
177523278,-67,33464,0,0,"$GPGGA,204907.000,3630.7342,N,12004.0532,W,2,12,0.73,50.7,M,-26.9,M,0000,0000*67",15.933624,15.97876097,,,,
178023301,-67,33600,0,0,"$GPGGA,204908.000,3630.7342,N,12004.0532,W,2,12,0.73,50.7,M,-26.9,M,0000,0000*68",15.952969,15.97602057,,,,
178523334,-68,33656,0,0,,16.030346,15.9774714,,,,
179023367,-68,33792,0,0,"$GPGGA,204909.000,3630.7342,N,12004.0531,W,2,12,0.73,50.7,M,-26.9,M,0000,0000*6A",16.011002,15.97795503,,,,
179523389,-68,33848,0,0,,16.006166,15.97811627,,,,
180023404,-68,33984,0,0,"$GPGGA,204910.000,3630.7342,N,12004.0531,W,2,12,0.73,50.7,M,-26.9,M,0000,0000*62",15.981985,15.97892227,,,,
180523431,-67,34040,0,0,,16.015837,15.97763267,,,,
181023450,-67,34096,0,0,,15.967477,15.97698787,,,,
181523486,-68,34232,0,0,"$GPGGA,204911.000,3630.7342,N,12004.0531,W,2,12,0.73,50.7,M,-26.9,M,0000,0000*63",16.127369,15.9816728,,,,
182030550,-68,34368,0,0,"$GPGGA,204912.000,3630.7342,N,12004.0532,W,2,12,0.73,50.7,M,-26.9,M,0000,0000*63",15.996493,15.98118917,,,,
182530612,-68,34424,0,0,,15.981985,15.98054437,,,,
183030647,-67,34480,0,0,,15.962641,15.97925477,,,,
183530708,-69,34616,0,0,"$GPGGA,204913.000,3630.7342,N,12004.0532,W,2,12,0.73,50.7,M,-26.9,M,0000,0000*62",16.015837,15.98086677,,,,
184030735,-69,34672,0,0,,16.006166,15.9813504,,,,
184530776,-70,34808,0,0,"$GPGGA,204914.000,3630.7342,N,12004.0532,W,2,12,0.73,50.7,M,-26.9,M,0000,0000*65",16.078707,15.98538047,,,,
185030804,-69,34864,0,0,,16.025509,15.98747607,,,,
185530844,-67,35000,0,0,"$GPGGA,204915.000,3630.7342,N,12004.0532,W,2,12,0.73,50.7,M,-26.9,M,0000,0000*64",15.991657,15.98683123,,,,
186030874,-68,35056,0,0,,15.928788,15.9852192,,,,
186530886,-67,35192,0,0,"$GPGGA,204916.000,3630.7342,N,12004.0532,W,2,12,0.73,50.7,M,-26.9,M,0000,0000*67",16.011002,15.98667003,,,,
187030948,-67,35248,0,0,,15.972313,15.98779847,,,,
187530962,-67,35384,0,0,"$GPGGA,204917.000,3630.7342,N,12004.0532,W,2,12,0.73,50.7,M,-26.9,M,0000,0000*66",15.957805,15.98618643,,,,
188030968,-67,35440,0,0,,15.996493,15.98715363,,,,
188531006,-67,35576,0,0,"$GPGGA,204918.000,3630.7342,N,12004.0532,W,2,12,0.73,50.7,M,-26.9,M,0000,0000*69",16.015837,15.98973287,,,,
189031067,-66,35632,0,0,,15.977149,15.99537493,,,,
189531067,-68,35768,0,0,"$GPGGA,204919.000,3630.7342,N,12004.0531,W,2,12,0.73,50.7,M,-26.9,M,0000,0000*6B",15.981985,15.99473013,,,,
190031144,-68,35824,0,0,,16.001329,15.99489133,,,,
190531196,-67,35960,0,0,"$GPGGA,204920.000,3630.7342,N,12004.0531,W,2,12,0.73,50.7,M,-26.9,M,0000,0000*61",16.030346,15.9989214,,,,
191031236,-68,36016,0,0,,16.006166,15.9987602,,,,
191531265,-66,36152,0,0,"$GPGGA,204921.000,3630.7342,N,12004.0531,W,2,12,0.73,50.7,M,-26.9,M,0000,0000*60",16.015837,15.99908257,,,,
192031304,-67,36208,0,0,,15.928788,15.99698693,,,,
192531341,-67,36344,0,0,"$GPGGA,204922.000,3630.7342,N,12004.0531,W,2,12,0.73,50.7,M,-26.9,M,0000,0000*63",15.972313,15.99827657,,,,
193031372,-67,36400,0,0,,16.035181,16.00101697,,,,
193531437,-67,36536,0,0,"$GPGGA,204923.000,3630.7342,N,12004.0531,W,2,12,0.73,50.7,M,-26.9,M,0000,0000*62",16.030346,16.00101697,,,,
194031471,-67,36592,0,0,,15.986821,16.00021093,,,,
194531483,-68,36728,0,0,"$GPGGA,204924.000,3630.7342,N,12004.0531,W,2,12,0.73,50.7,M,-26.9,M,0000,0000*65",15.991657,15.9997273,,,,
195031512,-68,36784,0,0,,16.011002,16.00069453,,,,
195531526,-69,36920,0,0,"$GPGGA,204925.000,3630.7342,N,12004.0531,W,2,12,0.73,50.7,M,-26.9,M,0000,0000*64",16.001329,16.00021093,,,,
196031541,-68,36976,0,0,,15.943296,15.9994049,,,,
196531609,-67,37112,0,0,"$GPGGA,204926.000,3630.7342,N,12004.0531,W,2,12,0.73,50.7,M,-26.9,M,0000,0000*67",15.977149,15.99439757,,,,
197031636,-68,37168,0,0,,15.986821,15.99407517,,,,
197531670,-68,37304,0,0,"$GPGGA,204927.000,3630.7342,N,12004.0531,W,2,12,0.73,50.7,M,-26.9,M,0000,0000*66",15.996493,15.99455877,,,,
198031670,-68,37360,0,0,,16.006166,15.9960096,,,,
198531716,-68,37496,0,0,"$GPGGA,204928.000,3630.7342,N,12004.0531,W,2,12,0.73,50.7,M,-26.9,M,0000,0000*69",15.996493,15.9953648,,,,
199031743,-69,37552,0,0,,15.923952,15.99262433,,,,
199531761,-68,37688,0,0,"$GPGGA,204929.000,3630.7342,N,12004.0531,W,2,12,0.73,50.7,M,-26.9,M,0000,0000*68",15.952969,15.98843307,,,,
200031799,-67,37744,0,0,,15.991657,15.98730467,,,,
200531858,-66,37880,0,0,"$GPGGA,204930.000,3630.7342,N,12004.0531,W,2,12,0.73,50.7,M,-26.9,M,0000,0000*60",15.880427,15.983597,,,,
201031924,-67,37936,0,0,,15.981985,15.98537023,,,,
201531943,-67,38072,0,0,"$GPGGA,204931.000,3630.7342,N,12004.0531,W,2,12,0.73,50.7,M,-26.9,M,0000,0000*61",15.977149,15.9842418,,,,
202031967,-66,38128,0,0,,15.967477,15.9840806,,,,
202532017,-67,38264,0,0,"$GPGGA,204932.000,3630.7342,N,12004.0531,W,2,12,0.73,50.7,M,-26.9,M,0000,0000*62",15.986821,15.9850478,,,,
203032036,-67,38320,0,0,,16.001329,15.985209,,,,
203532082,-67,38456,0,0,"$GPGGA,204933.000,3630.7342,N,12004.0531,W,2,12,0.73,50.7,M,-26.9,M,0000,0000*63",15.952969,15.9831134,,,,
204032095,-67,38512,0,0,,16.015837,15.984403,,,,
204532133,-67,38648,0,0,"$GPGGA,204934.000,3630.7342,N,12004.0531,W,2,12,0.73,50.7,M,-26.9,M,0000,0000*64",15.972313,15.9840806,,,,
205032197,-67,38704,0,0,,15.928788,15.98166257,,,,
205532212,-67,38840,0,0,"$GPGGA,204935.000,3630.7342,N,12004.0531,W,2,12,0.73,50.7,M,-26.9,M,0000,0000*65",15.957805,15.97924453,,,,
206032275,-67,38896,0,0,,15.943296,15.97714887,,,,
206532332,-67,39032,0,0,"$GPGGA,204936.000,3630.7342,N,12004.0531,W,2,12,0.73,50.7,M,-26.9,M,0000,0000*66",15.981985,15.97602047,,,,
207032361,-67,39088,0,0,,15.904608,15.97521447,,,,
207532382,-67,39224,0,0,"$GPGGA,204937.000,3630.7342,N,12004.0531,W,2,12,0.73,50.7,M,-26.9,M,0000,0000*67",16.015837,15.97666527,,,,
208032382,-67,39280,0,0,,15.880427,15.9715068,,,,
208532448,-66,39416,0,0,"$GPGGA,204938.000,3630.7342,N,12004.0531,W,2,12,0.73,50.8,M,-26.9,M,0000,0000*67",15.91428,15.96763793,,,,
209032472,-67,39472,0,0,,15.904608,15.9648975,,,,
209532532,-67,39608,0,0,"$GPGGA,204939.000,3630.7342,N,12004.0531,W,2,12,0.73,50.8,M,-26.9,M,0000,0000*66",15.943296,15.96328547,,,,
210032559,-67,39664,0,0,,15.93846,15.9608674,,,,
210532593,-67,39800,0,0,"$GPGGA,204940.000,3630.7342,N,12004.0531,W,2,12,0.73,50.8,M,-26.9,M,0000,0000*68",15.933624,15.95861057,,,,
211032624,-67,39856,0,0,,15.991657,15.9602226,,,,
211532666,-66,39992,0,0,"$GPGGA,204941.000,3630.7342,N,12004.0531,W,2,12,0.73,50.8,M,-26.9,M,0000,0000*69",15.923952,15.95844937,,,,
212032705,-66,40048,0,0,,15.957805,15.95748217,,,,
212532764,-66,40184,0,0,"$GPGGA,204942.000,3630.7342,N,12004.0531,W,2,12,0.73,50.8,M,-26.9,M,0000,0000*6A",15.909444,15.95458053,,,,
213032821,-67,40240,0,0,,15.943296,15.95248487,,,,
213532837,-66,40376,0,0,"$GPGGA,204943.000,3630.7342,N,12004.0531,W,2,12,0.73,50.8,M,-26.9,M,0000,0000*6B",15.880427,15.948616,,,,
214032885,-67,40432,0,0,,16.001329,15.95119523,,,,
214532912,-67,40568,0,0,"$GPGGA,204944.000,3630.7342,N,12004.0531,W,2,12,0.73,50.8,M,-26.9,M,0000,0000*6C",15.962641,15.95151763,,,,
215032943,-68,40624,0,0,,15.952969,15.95022803,,,,
215532989,-66,40760,0,0,"$GPGGA,204945.000,3630.7342,N,12004.0531,W,2,12,0.73,50.8,M,-26.9,M,0000,0000*6D",15.919116,15.95151767,,,,
216033021,-66,40816,0,0,,15.991657,15.95184007,,,,
216533091,-67,40952,0,0,"$GPGGA,204946.000,3630.7342,N,12004.0531,W,2,12,0.73,50.8,M,-26.9,M,0000,0000*6E",15.93846,15.95055043,,,,
217033079,-66,41008,0,0,,15.957805,15.95022803,,,,
217533122,-66,41064,0,0,,15.933624,15.9484548,,,,
218033176,-67,41200,0,0,"$GPGGA,204947.000,3630.7342,N,12004.0531,W,2,12,0.73,50.8,M,-26.9,M,0000,0000*6F",15.93846,15.94635917,,,,
218533196,-67,41256,0,0,,15.904608,15.94474713,,,,
219033232,-66,41392,0,0,"$GPGGA,204948.000,3630.7342,N,12004.0531,W,2,12,0.73,50.8,M,-26.9,M,0000,0000*60",15.972313,15.94329633,,,,
219533281,-66,41448,0,0,,15.952969,15.94265153,,,,
220033318,-67,41584,0,0,"$GPGGA,204949.000,3630.7342,N,12004.0531,W,2,12,0.73,50.8,M,-26.9,M,0000,0000*61",15.86592,15.94055593,,,,
220533375,-67,41720,0,0,"$GPGGA,204950.000,3630.7342,N,12004.0531,W,2,12,0.73,50.8,M,-26.9,M,0000,0000*69",15.919116,15.9392663,,,,
221033402,-67,41776,0,0,,15.986821,15.94071713,,,,
221533431,-66,41832,0,0,,15.933624,15.9391051,,,,
222033483,-66,41968,0,0,"$GPGGA,204951.000,3630.7342,N,12004.0531,W,2,12,0.73,50.8,M,-26.9,M,0000,0000*68",15.957805,15.94087833,,,,
222534112,-66,42104,0,0,"$GPGGA,204952.000,3630.7342,N,12004.0531,W,2,12,0.73,50.8,M,-26.9,M,0000,0000*6B",15.8901,15.9366871,,,,
223034153,-67,42160,0,0,,15.861084,15.93604233,,,,
223534237,-67,42216,0,0,,15.948133,15.93717077,,,,
224034264,-66,42352,0,0,"$GPGGA,204953.000,3630.7342,N,12004.0531,W,2,12,0.73,50.8,M,-26.9,M,0000,0000*6A",15.856248,15.93555877,,,,
224534309,-66,42408,0,0,,15.962641,15.9362036,,,,
225034321,-66,42544,0,0,"$GPGGA,204954.000,3630.7342,N,12004.0531,W,2,12,0.73,50.8,M,-26.9,M,0000,0000*6D",16.020674,15.93894407,,,,
225534344,-67,42600,0,0,,15.933624,15.93894407,,,,
226034373,-68,42736,0,0,,15.933624,15.93700963,,,,
227034443,-69,42872,0,0,"$GPGGA,204956.000,3630.7342,N,12004.0531,W,2,12,0.73,50.8,M,-26.9,M,0000,0000*6F",15.962641,15.93829927,,,,
227534512,-69,42928,0,0,,16.064198,15.9418457,,,,
228034558,-69,43064,0,0,"$GPGGA,204957.000,3630.7342,N,12004.0531,W,2,12,0.73,50.8,M,-26.9,M,0000,0000*6E",15.948133,15.94313533,,,,
228534593,-69,43120,0,0,,15.798215,15.9382993,,,,
229034639,-68,43256,0,0,"$GPGGA,204958.000,3630.7342,N,12004.0531,W,2,12,0.73,50.8,M,-26.9,M,0000,0000*61",15.933624,15.94007253,,,,
229534663,-69,43312,0,0,,15.981985,15.93942773,,,,
230034694,-68,43448,0,0,"$GPGGA,204959.000,3630.7342,N,12004.0531,W,2,12,0.73,50.8,M,-26.9,M,0000,0000*60",15.972313,15.93975013,,,,
230534698,-68,43504,0,0,,15.904608,15.9381381,,,,
231034708,-67,43640,0,0,"$GPGGA,205000.000,3630.7342,N,12004.0531,W,2,12,0.73,50.8,M,-26.9,M,0000,0000*64",15.986821,15.94039493,,,,
231534743,-68,43696,0,0,,15.899772,15.9373321,,,,
232034790,-67,43832,0,0,"$GPGGA,205001.000,3630.7342,N,12004.0531,W,2,12,0.73,50.8,M,-26.9,M,0000,0000*65",15.899772,15.9360425,,,,
232534847,-67,43888,0,0,,15.952969,15.9358813,,,,
233034908,-67,44024,0,0,"$GPGGA,205002.000,3630.7342,N,12004.0531,W,2,12,0.73,50.8,M,-26.9,M,0000,0000*66",15.919116,15.9353977,,,,
233534943,-66,44080,0,0,,15.933624,15.9352365,,,,
234035011,-66,44216,0,0,"$GPGGA,205003.000,3630.7342,N,12004.0531,W,2,12,0.73,50.8,M,-26.9,M,0000,0000*67",15.807887,15.93201247,,,,
234535040,-67,44272,0,0,,15.899772,15.92959443,,,,
235035079,-68,44408,0,0,"$GPGGA,205004.000,3630.7342,N,12004.0531,W,2,12,0.73,50.8,M,-26.9,M,0000,0000*60",16.001329,15.93120643,,,,
235535097,-68,44464,0,0,,15.923952,15.93314083,,,,
236035165,-67,44600,0,0,"$GPGGA,205005.000,3630.7342,N,12004.0531,W,2,12,0.73,50.8,M,-26.9,M,0000,0000*61",15.93846,15.93378563,,,,
236535166,-67,44656,0,0,,15.972313,15.93330203,,,,
237035192,-68,44792,0,0,"$GPGGA,205006.000,3630.7342,N,12004.0531,W,2,12,0.73,50.8,M,-26.9,M,0000,0000*62",15.948133,15.93378567,,,,
237535236,-68,44848,0,0,,15.899772,15.93185123,,,,
238035245,-68,44984,0,0,"$GPGGA,205007.000,3630.7342,N,12004.0531,W,2,12,0.73,50.8,M,-26.9,M,0000,0000*63",15.909444,15.93249603,,,,
238535265,-67,45040,0,0,,15.972313,15.93620367,,,,
239035273,-68,45176,0,0,"$GPGGA,205008.000,3630.7342,N,12004.0531,W,2,12,0.73,50.8,M,-26.9,M,0000,0000*6C",16.015837,15.93846047,,,,
239535305,-67,45232,0,0,,16.011002,15.94361893,,,,
240035319,-67,45368,0,0,"$GPGGA,205009.000,3630.7342,N,12004.0531,W,2,12,0.73,50.8,M,-26.9,M,0000,0000*6D",15.919116,15.9421681,,,,
240535362,-67,45424,0,0,,15.846576,15.93636483,,,,
241035389,-68,45560,0,0,"$GPGGA,205010.000,3630.7342,N,12004.0531,W,2,12,0.73,50.8,M,-26.9,M,0000,0000*65",15.948133,15.93684847,,,,
241535404,-67,45616,0,0,,15.875592,15.93491407,,,,
242035404,-67,45752,0,0,"$GPGGA,205011.000,3630.7342,N,12004.0531,W,2,12,0.73,50.8,M,-26.9,M,0000,0000*64",15.807887,15.9297556,,,,
242535442,-66,45808,0,0,,15.899772,15.92427473,,,,
243035511,-67,45944,0,0,"$GPGGA,205012.000,3630.7343,N,12004.0531,W,2,12,0.73,50.8,M,-26.9,M,0000,0000*66",15.86592,15.9215343,,,,
243535550,-67,46000,0,0,,15.981985,15.92765997,,,,
244035596,-66,46136,0,0,"$GPGGA,205013.000,3630.7343,N,12004.0531,W,2,12,0.73,50.8,M,-26.9,M,0000,0000*67",15.880427,15.92588673,,,,
244535661,-67,46192,0,0,,15.894936,15.9229851,,,,
245035692,-67,46328,0,0,"$GPGGA,205014.000,3630.7343,N,12004.0531,W,2,12,0.73,50.8,M,-26.9,M,0000,0000*60",15.919116,15.92121187,,,,
245535704,-67,46384,0,0,,15.986821,15.9239523,,,,
246035750,-68,46520,0,0,"$GPGGA,205015.000,3630.7343,N,12004.0531,W,2,12,0.73,50.8,M,-26.9,M,0000,0000*61",15.972313,15.9234687,,,,
246535812,-68,46576,0,0,,15.827231,15.92105067,,,,
247035872,-67,46712,0,0,"$GPGGA,205016.000,3630.7343,N,12004.0531,W,2,12,0.73,50.8,M,-26.9,M,0000,0000*62",15.948133,15.9226627,,,,
247535916,-65,46768,0,0,,15.91428,15.92137307,,,,
248035979,-67,46904,0,0,"$GPGGA,205017.000,3630.7343,N,12004.0531,W,2,12,0.73,50.8,M,-26.9,M,0000,0000*63",15.909444,15.92105067,,,,
248536028,-68,46960,0,0,,15.894936,15.91976107,,,,
249036093,-67,47096,0,0,"$GPGGA,205018.000,3630.7342,N,12004.0531,W,2,12,0.73,50.8,M,-26.9,M,0000,0000*6D",15.91428,15.9233075,,,,
249536124,-66,47152,0,0,,15.928788,15.9242747,,,,
250036181,-67,47288,0,0,"$GPGGA,205019.000,3630.7342,N,12004.0531,W,2,12,0.73,50.8,M,-26.9,M,0000,0000*6C",15.93846,15.92217907,,,,
250536223,-67,47344,0,0,,15.8901,15.92105067,,,,
251036236,-67,47480,0,0,"$GPGGA,205020.000,3630.7342,N,12004.0531,W,2,12,0.73,50.8,M,-26.9,M,0000,0000*66",15.991657,15.9228239,,,,
251536265,-66,47536,0,0,,15.957805,15.9223403,,,,
252036299,-66,47672,0,0,"$GPGGA,205021.000,3630.7343,N,12004.0531,W,2,12,0.73,50.8,M,-26.9,M,0000,0000*66",15.899772,15.92072827,,,,
252536347,-67,47728,0,0,,15.952969,15.9225015,,,,
253036360,-66,47864,0,0,"$GPGGA,205022.000,3630.7343,N,12004.0531,W,2,12,0.73,50.8,M,-26.9,M,0000,0000*65",15.967477,15.92443593,,,,
253536417,-67,47920,0,0,,15.894936,15.9218567,,,,
254036426,-67,48056,0,0,"$GPGGA,205020*64",15.875592,15.91718187,,,,
255536473,-67,48112,0,0,,15.880427,15.91282937,,,,
256036504,-67,48248,0,0,"$GPGGA,205025.000,3630.7343,N,12004.0531,W,2,12,0.73,50.8,M,-26.9,M,0000,0000*62",15.928788,15.91315177,,,,
256536513,-67,48304,0,0,,15.894936,15.91476377,,,,
257036552,-67,48440,0,0,"$GPGGA,205026.000,3630.7343,N,12004.0531,W,2,12,0.73,50.8,M,-26.9,M,0000,0000*61",15.919116,15.91379653,,,,
257536621,-68,48496,0,0,,15.870756,15.91363533,,,,
258036636,-66,48552,0,0,,15.836904,15.91460257,,,,
258536649,-67,48688,0,0,"$GPGGA,205027.000,3630.7343,N,12004.0531,W,2,12,0.73,50.8,M,-26.9,M,0000,0000*60",15.933624,15.91573097,,,,
259037046,-68,48824,0,0,"$GPGGA,205028.000,3630.7343,N,12004.0531,W,2,12,0.73,50.8,M,-26.9,M,0000,0000*6F",15.91428,15.91734297,,,,
259537056,-67,48880,0,0,,15.851412,15.91299053,,,,
260039227,-67,49016,0,0,"$GPGGA,205029.000,3630.7343,N,12004.0531,W,2,12,0.73,50.8,M,-26.9,M,0000,0000*6E",15.870756,15.91266817,,,,
260539230,-67,49072,0,0,,15.894936,15.91266817,,,,
261039231,-68,49128,0,0,,15.919116,15.91266817,,,,
261539274,-67,49264,0,0,"$GPGGA,205030.000,3630.7343,N,12004.0531,W,2,12,0.73,50.8,M,-26.9,M,0000,0000*66",15.899772,15.90976653,,,,
262039301,-67,49320,0,0,,15.84174,15.9054141,,,,
262539342,-67,49456,0,0,"$GPGGA,205031.000,3630.7343,N,12004.0531,W,2,12,0.73,50.8,M,-26.9,M,0000,0000*67",15.861084,15.90654253,,,,
263039382,-67,49592,0,0,"$GPGGA,205032.000,3630.7342,N,12004.0531,W,2,12,0.73,50.8,M,-26.9,M,0000,0000*65",15.928788,15.9058977,,,,
263539413,-67,49648,0,0,,15.870756,15.9044469,,,,
264039474,-67,49704,0,0,,15.856248,15.9026737,,,,
264539478,-67,49840,0,0,"$GPGGA,205033.000,3630.7342,N,12004.0531,W,2,12,0.73,50.8,M,-26.9,M,0000,0000*64",15.846576,15.9010617,,,,
265039531,-67,49896,0,0,,15.856248,15.8991273,,,,
265539575,-67,50032,0,0,"$GPGGA,205034.000,3630.7342,N,12004.0531,W,2,12,0.73,50.8,M,-26.9,M,0000,0000*63",16.078707,15.9041246,,,,
266039633,-67,50088,0,0,,16.059362,15.90815467,,,,
266539671,-67,50224,0,0,"$GPGGA,205035.000,3630.7343,N,12004.0531,W,2,12,0.73,50.8,M,-26.9,M,0000,0000*63",15.972313,15.9108951,,,,
267039725,-67,50280,0,0,,15.861084,15.90654267,,,,
267539784,-67,50416,0,0,"$GPGGA,205036.000,3630.7343,N,12004.0531,W,2,12,0.73,50.8,M,-26.9,M,0000,0000*60",15.933624,15.90573663,,,,
268039831,-67,50472,0,0,,15.93846,15.90702623,,,,
268539887,-67,50608,0,0,"$GPGGA,205037.000,3630.7343,N,12004.0531,W,2,12,0.73,50.8,M,-26.9,M,0000,0000*61",15.86592,15.9041246,,,,
269039942,-67,50664,0,0,,15.91428,15.90235137,,,,
269539965,-67,50800,0,0,"$GPGGA,205038.000,3630.7343,N,12004.0531,W,2,12,0.73,50.8,M,-26.9,M,0000,0000*6E",15.909444,15.90283497,,,,
270040026,-68,50856,0,0,,15.933624,15.90476937,,,,
270540063,-68,50992,0,0,"$GPGGA,205039.000,3630.7343,N,12004.0531,W,2,12,0.73,50.8,M,-26.9,M,0000,0000*6F",15.957805,15.90734863,,,,
271040079,-67,51048,0,0,,15.919116,15.90702623,,,,
271540121,-67,51184,0,0,"$GPGGA,205040.000,3630.7343,N,12004.0531,W,2,12,0.73,50.8,M,-26.9,M,0000,0000*61",15.909444,15.90750983,,,,
272040177,-67,51240,0,0,,15.948133,15.90847707,,,,
272540232,-66,51376,0,0,"$GPGGA,205041.000,3630.7343,N,12004.0531,W,2,12,0.73,50.8,M,-26.9,M,0000,0000*60",15.981985,15.9121847,,,,
273040297,-67,51432,0,0,,15.894936,15.9141191,,,,
273540319,-67,51568,0,0,"$GPGGA,205042.000,3630.7343,N,12004.0531,W,2,12,0.73,50.8,M,-26.9,M,0000,0000*63",15.836904,15.9108951,,,,
274040340,-67,51624,0,0,,15.943296,15.9118623,,,,
274540342,-67,51760,0,0,"$GPGGA,205043.000,3630.7343,N,12004.0531,W,2,12,0.73,50.8,M,-26.9,M,0000,0000*62",15.899772,15.9134743,,,,
275040384,-66,51816,0,0,,15.8901,15.9141191,,,,
275540415,-67,51952,0,0,"$GPGGA,205044.000,3630.7343,N,12004.0531,W,2,12,0.73,50.8,M,-26.9,M,0000,0000*65",15.923952,15.9150863,,,,
276040453,-67,52008,0,0,,15.952969,15.91621473,,,,
276540466,-67,52144,0,0,"$GPGGA,205045.000,3630.7342,N,12004.0531,W,2,12,0.73,50.8,M,-26.9,M,0000,0000*65",15.962641,15.91831037,,,,
277040510,-67,52200,0,0,,15.8901,15.91992237,,,,
277540543,-66,52336,0,0,"$GPGGA,205046.000,3630.7342,N,12004.0531,W,2,12,0.73,50.8,M,-26.9,M,0000,0000*66",15.923952,15.92201797,,,,
278040550,-66,52392,0,0,,15.919116,15.92169557,,,,
278540593,-66,52528,0,0,"$GPGGA,205047.000,3630.7342,N,12004.0531,W,2,12,0.73,50.8,M,-26.9,M,0000,0000*67",15.967477,15.9249196,,,,
279040609,-66,52584,0,0,,15.928788,15.9273376,,,,
279540650,-67,52720,0,0,"$GPGGA,205048.000,3630.7343,N,12004.0531,W,2,12,0.73,50.8,M,-26.9,M,0000,0000*69",15.769198,15.92475833,,,,
280040716,-67,52776,0,0,,15.851412,15.92459713,,,,
280540740,-67,52912,0,0,"$GPGGA,205049.000,3630.7343,N,12004.0531,W,2,12,0.73,50.8,M,-26.9,M,0000,0000*68",15.885263,15.918149,,,,
281040774,-67,52968,0,0,,15.817559,15.9100889,,,,
281540810,-66,53104,0,0,"$GPGGA,205050.000,3630.7343,N,12004.0531,W,2,12,0.73,50.8,M,-26.9,M,0000,0000*60",15.952969,15.9094441,,,,
282040817,-66,53160,0,0,,15.923952,15.9115397,,,,
282540881,-67,53296,0,0,"$GPGGA,205051.000,3630.7343,N,12004.0531,W,2,12,0.73,50.8,M,-26.9,M,0000,0000*61",15.909444,15.9107337,,,,
283040926,-66,53352,0,0,,15.972313,15.91186213,,,,
283540940,-67,53488,0,0,"$GPGGA,205052.000,3630.7343,N,12004.0531,W,2,12,0.73,50.8,M,-26.9,M,0000,0000*62",16.001329,15.91637577,,,,
284040997,-67,53544,0,0,,15.8901,15.91556977,,,,
284541025,-67,53680,0,0,"$GPGGA,205053.000,3630.7343,N,12004.0531,W,2,12,0.73,50.8,M,-26.9,M,0000,0000*63",15.957805,15.9171818,,,,
285041049,-66,53736,0,0,,15.996493,15.91927743,,,,
285541100,-66,53872,0,0,"$GPGGA,205054.000,3630.7343,N,12004.0531,W,2,12,0.73,50.8,M,-26.9,M,0000,0000*64",15.93846,15.9186326,,,,
286041152,-67,53928,0,0,,15.880427,15.91734297,,,,
286541169,-67,54064,0,0,"$GPGGA,205055.000,3630.7343,N,12004.0531,W,2,12,0.73,50.8,M,-26.9,M,0000,0000*65",15.93846,15.91831017,,,,
287041207,-67,54120,0,0,,15.977149,15.91927737,,,,
287541238,-66,54256,0,0,"$GPGGA,205056.000,3630.7343,N,12004.0531,W,2,12,0.73,50.8,M,-26.9,M,0000,0000*66",15.952969,15.91831017,,,,
288041248,-66,54312,0,0,,15.909444,15.91879377,,,,
288541256,-66,54448,0,0,"$GPGGA,205057.000,3630.7343,N,12004.0531,W,2,12,0.73,50.8,M,-26.9,M,0000,0000*67",15.894936,15.92072817,,,,
289041298,-66,54504,0,0,,15.93846,15.92056697,,,,
289541333,-67,54640,0,0,"$GPGGA,205058.000,3630.7343,N,12004.0531,W,2,12,0.73,50.8,M,-26.9,M,0000,0000*68",15.923952,15.92137297,,,,
290041367,-67,54696,0,0,,15.885263,15.92121173,,,,
290541413,-67,54832,0,0,"$GPGGA,205059.000,3630.7343,N,12004.0531,W,2,12,0.73,50.8,M,-26.9,M,0000,0000*69",15.899772,15.92040573,,,,
291041464,-67,54888,0,0,,15.948133,15.92024453,,,,
291541474,-66,55024,0,0,"$GPGGA,205100.000,3630.7343,N,12004.0531,W,2,12,0.73,50.8,M,-26.9,M,0000,0000*64",15.904608,15.9183101,,,,
292041493,-64,55080,0,0,,15.91428,15.9191161,,,,
292541536,-67,55216,0,0,"$GPGGA,205101.000,3630.7343,N,12004.0531,W,2,12,0.73,50.8,M,-26.9,M,0000,0000*65",15.923952,15.9191161,,,,
293041542,-67,55272,0,0,,15.962641,15.92056693,,,,
293541566,-67,55408,0,0,"$GPGGA,205102.000,3630.7343,N,12004.0531,W,2,12,0.73,50.8,M,-26.9,M,0000,0000*66",15.870756,15.9173429,,,,
294041582,-67,55464,0,0,,15.875592,15.9155697,,,,
294541637,-66,55600,0,0,"$GPGGA,205103.000,3630.7343,N,12004.0531,W,2,12,0.73,50.8,M,-26.9,M,0000,0000*67",15.972313,15.9223402,,,,
295041666,-66,55656,0,0,,15.899772,15.9239522,,,,
295541672,-66,55792,0,0,"$GPGGA,205104.000,3630.7343,N,12004.0531,W,2,12,0.73,50.8,M,-26.9,M,0000,0000*60",15.933624,15.92556423,,,,
296041681,-67,55848,0,0,,15.846576,15.92653147,,,,
296541691,-67,55984,0,0,"$GPGGA,205105.000,3630.7343,N,12004.0531,W,2,12,0.73,50.8,M,-26.9,M,0000,0000*61",15.919116,15.92540303,,,,
297041708,-67,56040,0,0,,15.8901,15.92427463,,,,
297541774,-67,56176,0,0,"$GPGGA,205106.000,3630.7343,N,12004.0531,W,2,12,0.73,50.8,M,-26.9,M,0000,0000*62",15.8901,15.92362983,,,,
298041801,-68,56232,0,0,,15.880427,15.92056697,,,,
298541812,-67,56288,0,0,,15.919116,15.91782653,,,,
299041843,-67,56424,0,0,"$GPGGA,205107.000,3630.7343,N,12004.0531,W,2,12,0.73,50.8,M,-26.9,M,0000,0000*63",15.909444,15.91847133,,,,
299541863,-67,56480,0,0,,15.84174,15.9146025,,,,
300041912,-67,56616,0,0,"$GPGGA,205108.000,3630.7343,N,12004.0531,W,2,12,0.73,50.8,M,-26.9,M,0000,0000*6C",15.93846,15.91266807,,,,
300541930,-67,56672,0,0,,15.894936,15.91121727,,,,
301041993,-67,56808,0,0,"$GPGGA,205109.000,3630.7343,N,12004.0531,W,2,12,0.73,50.8,M,-26.9,M,0000,0000*6D",15.8901,15.9115397,,,,
301542023,-67,56864,0,0,,15.91428,15.9107337,,,,
302042055,-67,57000,0,0,"$GPGGA,205110.000,3630.7343,N,12004.0531,W,2,12,0.73,50.8,M,-26.9,M,0000,0000*65",15.8901,15.90783207,,,,
302542074,-67,57056,0,0,,15.904608,15.90622003,,,,
303042097,-67,57192,0,0,"$GPGGA,205111.000,3630.7343,N,12004.0531,W,2,12,0.73,50.8,M,-26.9,M,0000,0000*64",15.8901,15.90557523,,,,
303542162,-66,57248,0,0,,15.948133,15.90734847,,,,
304042206,-66,57384,0,0,"$GPGGA,205112.000,3630.7343,N,12004.0531,W,2,12,0.73,50.8,M,-26.9,M,0000,0000*67",15.909444,15.90638127,,,,
304542248,-67,57440,0,0,,15.923952,15.90638127,,,,
305042305,-67,57576,0,0,"$GPGGA,205113.000,3630.7343,N,12004.0531,W,2,12,0.73,50.8,M,-26.9,M,0000,0000*66",15.919116,15.9075097,,,,
305542332,-66,57632,0,0,,15.86592,15.9063813,,,,
306042374,-67,57768,0,0,"$GPGGA,205114.000,3630.7343,N,12004.0531,W,2,12,0.73,50.8,M,-26.9,M,0000,0000*61",15.933624,15.90589767,,,,
306542407,-66,57824,0,0,,15.86592,15.90460807,,,,
307042417,-66,57960,0,0,"$GPGGA,205115.000,3630.7343,N,12004.0531,W,2,12,0.73,50.8,M,-26.9,M,0000,0000*60",15.91428,15.90460807,,,,
307542458,-67,58016,0,0,,15.885263,15.90331843,,,,
308042500,-67,58152,0,0,"$GPGGA,205116.000,3630.7343,N,12004.0531,W,2,12,0.73,50.8,M,-26.9,M,0000,0000*63",15.957805,15.90315723,,,,
308542521,-67,58208,0,0,,15.822395,15.9015452,,,,
309042575,-67,58344,0,0,"$GPGGA,205117.000,3630.7343,N,12004.0531,W,2,12,0.73,50.8,M,-26.9,M,0000,0000*62",15.91428,15.9028348,,,,
309542622,-67,58400,0,0,,15.894936,15.90025557,,,,
310042622,-66,58536,0,0,"$GPGGA,205118.000,3630.7343,N,12004.0531,W,2,12,0.73,50.8,M,-26.9,M,0000,0000*6D",15.952969,15.9020288,,,,
310542639,-67,58592,0,0,,15.957805,15.90283483,,,,
311042639,-67,58728,0,0,"$GPGGA,205119.000,3630.7343,N,12004.0531,W,2,12,0.73,50.8,M,-26.9,M,0000,0000*6C",15.86592,15.90347963,,,,
311542694,-67,58784,0,0,,16.020674,15.9068649,,,,
312042750,-68,58920,0,0,"$GPGGA,205120.000,3630.7343,N,12004.0531,W,2,12,0.73,50.8,M,-26.9,M,0000,0000*66",15.933624,15.9083157,,,,
312542790,-68,58976,0,0,,15.798215,15.90525287,,,,
313042844,-68,59112,0,0,"$GPGGA,205121.000,3630.7343,N,12004.0531,W,2,12,0.73,50.8,M,-26.9,M,0000,0000*67",15.952969,15.90767093,,,,
313542902,-69,59168,0,0,,15.86592,15.90589773,,,,
314042904,-67,59304,0,0,"$GPGGA,205122.000,3630.7343,N,12004.0531,W,2,12,0.73,50.8,M,-26.9,M,0000,0000*64",15.904608,15.90573653,,,,
314542958,-67,59360,0,0,,15.919116,15.90831573,,,,
315042964,-67,59496,0,0,"$GPGGA,205123.000,3630.7343,N,12004.0531,W,2,12,0.73,50.8,M,-26.9,M,0000,0000*65",15.899772,15.90702613,,,,
315543012,-67,59552,0,0,,15.84174,15.90525293,,,,
316043020,-67,59688,0,0,"$GPGGA,205124.000,3630.7343,N,12004.0531,W,2,12,0.73,50.8,M,-26.9,M,0000,0000*62",15.909444,15.90589773,,,,
316543040,-67,59744,0,0,,15.84174,15.90347973,,,,
317043097,-84,59880,0,0,"$GPGGA,205125.000,3630.7343,N,12004.0531,W,2,12,0.73,50.8,M,-26.9,M,0000,0000*63",15.861084,15.90251253,,,,
317543154,-85,59936,0,0,,15.909444,15.90267373,,,,
318043154,-82,60072,0,0,"$GPGGA,205126.000,3630.7343,N,12004.0531,W,2,12,0.73,50.8,M,-26.9,M,0000,0000*60",15.909444,15.90331853,,,,
318543223,-83,60128,0,0,,15.875592,15.9009005,,,,
319043263,-85,60264,0,0,"$GPGGA,205127.000,3630.7343,N,12004.0531,W,2,12,0.73,50.8,M,-26.9,M,0000,0000*61",15.817559,15.89783767,,,,
320043347,-66,60400,0,0,"$GPGGA,205128.000,3630.7343,N,12004.0531,W,2,12,0.73,50.8,M,-26.9,M,0000,0000*6E",15.759526,15.8923568,,,,
320543385,-67,60456,0,0,,15.880427,15.89106717,,,,
321043389,-66,60592,0,0,"$GPGGA,205129.000,3630.7343,N,12004.0531,W,2,12,0.73,50.8,M,-26.9,M,0000,0000*6F",15.861084,15.89090597,,,,
321543453,-66,60648,0,0,,15.8901,15.88945517,,,,
322043486,-66,60784,0,0,"$GPGGA,205130.000,3630.7343,N,12004.0531,W,2,12,0.73,50.8,M,-26.9,M,0000,0000*67",15.84174,15.88864917,,,,
322543496,-67,60840,0,0,,15.846576,15.88639237,,,,
323043513,-68,60976,0,0,"$GPGGA,205131.000,3630.7343,N,12004.0531,W,2,12,0.73,50.8,M,-26.9,M,0000,0000*66",15.851412,15.885264,,,,
323543548,-70,61032,0,0,,15.856248,15.88187877,,,,
324043597,-68,61168,0,0,"$GPGGA,205132.000,3630.7343,N,12004.0531,W,2,12,0.73,50.8,M,-26.9,M,0000,0000*65",15.904608,15.8846192,,,,
324543639,-67,61224,0,0,,15.812723,15.88123397,,,,
325043648,-64,61360,0,0,"$GPGGA,205133.000,3630.7343,N,12004.0531,W,2,12,0.73,50.8,M,-26.9,M,0000,0000*64",15.807887,15.87833233,,,,
325543708,-66,61416,0,0,,15.861084,15.8752695,,,,
326043733,-66,61552,0,0,"$GPGGA,205134.000,3630.7343,N,12004.0531,W,2,12,0.73,50.8,M,-26.9,M,0000,0000*63",15.836904,15.87123947,,,,
326543792,-82,61608,0,0,,15.832067,15.87011103,,,,
327043819,-84,61744,0,0,"$GPGGA,205135.000,3630.7343,N,12004.0531,W,2,12,0.73,50.8,M,-26.9,M,0000,0000*62",15.851412,15.86446897,,,,
327543853,-85,61800,0,0,,15.822395,15.86076133,,,,
329043905,-66,61936,0,0,"$GPGGA,205137.000,3630.7343,N,12004.0531,W,2,12,0.73,50.8,M,-26.9,M,0000,0000*60",15.774035,15.85995533,,,,
329543915,-66,61992,0,0,,15.827231,15.85576407,,,,
330043987,-66,62128,0,0,"$GPGGA,205138.000,3630.7343,N,12004.0531,W,2,12,0.73,50.8,M,-26.9,M,0000,0000*6F",15.851412,15.85528047,,,,
330543992,-66,62184,0,0,,15.851412,15.85350727,,,,
331044012,-66,62320,0,0,"$GPGGA,205139.000,3630.7343,N,12004.0531,W,2,12,0.73,50.8,M,-26.9,M,0000,0000*6E",15.783707,15.84899363,,,,
331544036,-66,62376,0,0,,15.885263,15.84851,,,,
332044045,-66,62512,0,0,"$GPGGA,205140.000,3630.7343,N,12004.0531,W,2,12,0.73,50.8,M,-26.9,M,0000,0000*60",15.967477,15.85270123,,,,
332544089,-66,62568,0,0,,15.899772,15.85237883,,,,
333044100,-67,62704,0,0,"$GPGGA,205141.000,3630.7343,N,12004.0531,W,2,12,0.73,50.8,M,-26.9,M,0000,0000*61",15.856248,15.85286243,,,,
333544133,-66,62760,0,0,,15.967477,15.85640887,,,,
